~Version
 VERS              .         2                             : CWLS LOG ASCII STANDARD - VERSION 2.0
 WRAP              .         NO                            : ONE LINE PER DEPTH STEP
 DLM               .         SPACE                         : DELIMITING CHARACTER(SPACE TAB OR COMMA)
~Well Information
#_______________________________________________________________________________
#
#PARAMETER_NAME    .UNIT     VALUE                         : DESCRIPTION
#_______________________________________________________________________________
STRT               .m        116.676                       : First reference value
STOP               .m        176.1496                      : Last reference value
STEP               .m        0                             : Step increment
NULL               .         -999.25                       : Missing value
WELL               .         SUNCOR LEWIS 7-22-92-8        : Well name
FILE-ID            .         00001_STAR_RPT                                                   : 
FLD                .         UNDEFINED                     : 
FILE-NUMBER        .         1                             : 
WELL-NAME          .         SUNCOR LEWIS 7-22-92-8        : 
FILE-SET-NUMBER    .         51                            : 
SRC_UNIT           .         meters                        : 
PRODUCER-CODE      .         150                           : 
SRC_NAME           .         /dat1a/SUNCOR2016/CA003953/star_rpt.xtf: 
FILE-TYPE          .         EXCHANGE                      : 
VERSION            .         Access-5.49                   : 
NAME-SPACE-VERSION .         1                             : 
COMP               .         SUNCOR ENERGY INC             : 
FILE-SET-NAME      .         BAKERH                        : 
COMPANY            .         SUNCOR ENERGY INC             : 
ABSE_FVAL          .         -999.25                       : 
WN                 .         SUNCOR LEWIS 7-22-92-8        : 
NAME-SPACE-NAME    .         BAKERH                        : 
FIELD-NAME         .         UNDEFINED                     : 
CREATION-TIME      .         2016/1/16 16_45               : 
SRC_FILE           .         star_rpt.xtf                  : 
PRODUCER-NAME      .         ATLAS                         : 
HLD                .         IN MAKING INTERPRETATIONS OF LOGS OUR EMPLOYEES WILL GIVE CUSTOMER <_techsia_sc_>THE BENEFIT OF THEIR BEST JUDGEMENT. BUT SINCE ALL INTERPRETATIONS <_techsia_sc_>ARE OPINIONS BASED ON INFERENCES FROM ELECTRICAL OR OTHER <_techsia_sc_>MEASUREMENTS, WE CANNOT, AND WE DO NOT GUARANTEE THE ACCURACY OR <_techsia_sc_>CORRECTNESS OF ANY INTERPRETATION. WE SHALL NOT BE LIABLE OR <_techsia_sc_>RESPONSIBLE FOR ANY LOSS, COST, DAMAGES, OR EXPENSES WHATSOEVER <_techsia_sc_>INCURRED OR SUSTAINED BY THE CUSTOMER RESULTING FROM ANY <_techsia_sc_>INTERPRETATION MADE BY ANY OF OUR EMPLOYEES.: 
PRODUCT            .         WFM/eclips                    : 
PROGRAMS           .         Data Export                   : 
UWI                .         1AA072209208W400              : 
CTRY               .         CA                            : Two letter Internet country code
COUNTRY            .         CANADA                        : 
PROVINCE           .         Alberta                       : 
LATI               .Deg      57.0175 N                     : 
LONG               .W        -111.419 W                    : 
EREF               .m        440.70                        : 
DREF               .m        438.50                        : 
LSD                .         07                            : 
SEC                .         22                            : 
TWP                .         092                           : 
RGE                .         08W4                          : 
SON                .         003953J                       : 
LICENSE            .         0477502                       : 
EKB                .m        440.70                        : 
EGL                .m        438.50                        : 
Completion_date    .         16-Jan-2016                   : 
LOC                .                                       : 
DATE               .                                       : 
SRVC               .                                       : 
GDAT               .                                       : 
PROV               .                                       : 
LIC                .                                       : 
STAT               .                                       : 
CNTY               .                                       : 
API                .                                       : 
~Parameter Information Block
#_______________________________________________________________________________
#
#PARAMETER_NAME    .UNIT     VALUE                         : DESCRIPTION
#_______________________________________________________________________________
SET                .         Dip_Discontinuity_Boundary    : 
REAL_CREATION_DATE .         Tue Jan 19 2016-16_48_55      : 
TLFamily_TDEP      .         Measured Depth                : 
TLFamily_Type      .         Dip Classification            : 
TLFamily_Quality   .         Dip Quality                   : 
TLFamily_Azimuth   .         True Dip Azimuth              : 
TLFamily_Dip_TRU   .         True Dip Inclination          : 
~Curve Information
#_______________________________________________________________________________
#
#LOGNAME           .UNIT     LOG_ID                        : DESCRIPTION
#_______________________________________________________________________________
TDEP               .m                                      :  
Azimuth            .dega                                   :  
Dip_TRU            .dega                                   :  
Quality            .unitless                               :  
Type               .unitless                               :  
~Ascii
116.676    358.5671   2.278647   20         "Discontinuity Boundary"
117.1254   27.7787    0.3639058  20         "Discontinuity Boundary"
118.2344   151.9156   9.77101    20         "Discontinuity Boundary"
119.4717   25.52941   1.618884   20         "Discontinuity Boundary"
120.7865   291.1609   4.176494   20         "Discontinuity Boundary"
120.9972   195.6304   0.2702104  20         "Discontinuity Boundary"
122.118    188.9638   5.277547   20         "Discontinuity Boundary"
123.8669   337.1873   1.132187   20         "Discontinuity Boundary"
131.3161   312.7503   1.295561   20         "Discontinuity Boundary"
133.0833   222.9952   8.741545   20         "Discontinuity Boundary"
137.9947   319.2142   3.578285   20         "Discontinuity Boundary"
138.7311   138.3655   5.213755   20         "Discontinuity Boundary"
139.7219   349.2468   2.652106   20         "Discontinuity Boundary"
141.9031   331.5455   3.756172   20         "Discontinuity Boundary"
142.9584   330.3826   1.884575   20         "Discontinuity Boundary"
144.3726   260.563    8.358339   20         "Discontinuity Boundary"
147.9319   138.1215   3.300987   20         "Discontinuity Boundary"
150.6101   7.694275   7.701406   20         "Discontinuity Boundary"
151.8862   352.7798   27.0336    20         "Discontinuity Boundary"
152.1857   359.2422   4.747386   20         "Discontinuity Boundary"
153.0919   309.3378   0.7182785  20         "Discontinuity Boundary"
155.8161   315.9666   1.323983   20         "Discontinuity Boundary"
156.0186   317.3279   0.5543071  20         "Discontinuity Boundary"
156.3499   67.55839   6.110969   20         "Discontinuity Boundary"
158.8448   328.538    1.843711   20         "Discontinuity Boundary"
159.2176   330.9883   3.819954   20         "Discontinuity Boundary"
159.6748   172.7236   2.170376   20         "Discontinuity Boundary"
163.422    312.3079   2.326758   20         "Discontinuity Boundary"
164.7384   311.422    2.995521   20         "Discontinuity Boundary"
165.3199   294.6089   0.4283698  20         "Discontinuity Boundary"
165.55     19.37084   5.498106   20         "Discontinuity Boundary"
166.5887   346.6893   4.032359   20         "Discontinuity Boundary"
167.5047   169.7554   2.116934   20         "Discontinuity Boundary"
168.1997   199.8007   1.093471   20         "Discontinuity Boundary"
169.5023   144.0014   2.111826   20         "Discontinuity Boundary"
170.268    308.4856   0.3177935  20         "Discontinuity Boundary"
170.5318   19.22871   5.091246   20         "Discontinuity Boundary"
171.9465   150.1519   5.2741     20         "Discontinuity Boundary"
172.6384   345.0109   2.231092   20         "Discontinuity Boundary"
173.3188   346.8827   2.477161   20         "Discontinuity Boundary"
174.1494   181.8009   5.388325   20         "Discontinuity Boundary"
174.5069   326.2849   4.505507   20         "Discontinuity Boundary"
175.389    160.0709   15.85627   20         "Discontinuity Boundary"
176.1496   237.0342   8.055437   20         "Discontinuity Boundary"
