~Version
 VERS              .         2                             : CWLS LOG ASCII STANDARD - VERSION 2.0
 WRAP              .         NO                            : ONE LINE PER DEPTH STEP
 DLM               .         SPACE                         : DELIMITING CHARACTER(SPACE TAB OR COMMA)
~Well Information
#_______________________________________________________________________________
#
#PARAMETER_NAME    .UNIT     VALUE                         : DESCRIPTION
#_______________________________________________________________________________
STRT               .m        110.9465                      : First reference value
STOP               .m        175.3434                      : Last reference value
STEP               .m        0                             : Step increment
NULL               .         -999.25                       : Missing value
WELL               .         SUNCOR LEWIS 7-22-92-8        : Well name
FILE-ID            .         00001_STAR_RPT                                                   : 
FLD                .         UNDEFINED                     : 
FILE-NUMBER        .         1                             : 
WELL-NAME          .         SUNCOR LEWIS 7-22-92-8        : 
FILE-SET-NUMBER    .         51                            : 
SRC_UNIT           .         meters                        : 
PRODUCER-CODE      .         150                           : 
SRC_NAME           .         /dat1a/SUNCOR2016/CA003953/star_rpt.xtf: 
FILE-TYPE          .         EXCHANGE                      : 
VERSION            .         Access-5.49                   : 
NAME-SPACE-VERSION .         1                             : 
COMP               .         SUNCOR ENERGY INC             : 
FILE-SET-NAME      .         BAKERH                        : 
COMPANY            .         SUNCOR ENERGY INC             : 
ABSE_FVAL          .         -999.25                       : 
WN                 .         SUNCOR LEWIS 7-22-92-8        : 
NAME-SPACE-NAME    .         BAKERH                        : 
FIELD-NAME         .         UNDEFINED                     : 
CREATION-TIME      .         2016/1/16 16_45               : 
SRC_FILE           .         star_rpt.xtf                  : 
PRODUCER-NAME      .         ATLAS                         : 
HLD                .         IN MAKING INTERPRETATIONS OF LOGS OUR EMPLOYEES WILL GIVE CUSTOMER <_techsia_sc_>THE BENEFIT OF THEIR BEST JUDGEMENT. BUT SINCE ALL INTERPRETATIONS <_techsia_sc_>ARE OPINIONS BASED ON INFERENCES FROM ELECTRICAL OR OTHER <_techsia_sc_>MEASUREMENTS, WE CANNOT, AND WE DO NOT GUARANTEE THE ACCURACY OR <_techsia_sc_>CORRECTNESS OF ANY INTERPRETATION. WE SHALL NOT BE LIABLE OR <_techsia_sc_>RESPONSIBLE FOR ANY LOSS, COST, DAMAGES, OR EXPENSES WHATSOEVER <_techsia_sc_>INCURRED OR SUSTAINED BY THE CUSTOMER RESULTING FROM ANY <_techsia_sc_>INTERPRETATION MADE BY ANY OF OUR EMPLOYEES.: 
PRODUCT            .         WFM/eclips                    : 
PROGRAMS           .         Data Export                   : 
UWI                .         1AA072209208W400              : 
CTRY               .         CA                            : Two letter Internet country code
COUNTRY            .         CANADA                        : 
PROVINCE           .         Alberta                       : 
LATI               .Deg      57.0175 N                     : 
LONG               .W        -111.419 W                    : 
EREF               .m        440.70                        : 
DREF               .m        438.50                        : 
LSD                .         07                            : 
SEC                .         22                            : 
TWP                .         092                           : 
RGE                .         08W4                          : 
SON                .         003953J                       : 
LICENSE            .         0477502                       : 
EKB                .m        440.70                        : 
EGL                .m        438.50                        : 
Completion_date    .         16-Jan-2016                   : 
LOC                .                                       : 
DATE               .                                       : 
SRVC               .                                       : 
GDAT               .                                       : 
PROV               .                                       : 
LIC                .                                       : 
STAT               .                                       : 
CNTY               .                                       : 
API                .                                       : 
~Parameter Information Block
#_______________________________________________________________________________
#
#PARAMETER_NAME    .UNIT     VALUE                         : DESCRIPTION
#_______________________________________________________________________________
SET                .         Dip_Deformed_Bed_Boundary     : 
REAL_CREATION_DATE .         Tue Jan 19 2016-16_48_55      : 
TLFamily_TDEP      .         Measured Depth                : 
TLFamily_Type      .         Dip Classification            : 
TLFamily_Quality   .         Dip Quality                   : 
TLFamily_Azimuth   .         True Dip Azimuth              : 
TLFamily_Dip_TRU   .         True Dip Inclination          : 
~Curve Information
#_______________________________________________________________________________
#
#LOGNAME           .UNIT     LOG_ID                        : DESCRIPTION
#_______________________________________________________________________________
TDEP               .m                                      :  
Azimuth            .dega                                   :  
Dip_TRU            .dega                                   :  
Quality            .unitless                               :  
Type               .unitless                               :  
~Ascii
110.9465   132.5071   14.07698   20         "Deformed Bed Boundary"
110.9986   151.9989   27.73105   20         "Deformed Bed Boundary"
111.1183   156.5704   45.0069    20         "Deformed Bed Boundary"
111.2472   162.0056   18.62241   20         "Deformed Bed Boundary"
143.0442   154.2436   10.06505   20         "Deformed Bed Boundary"
143.1762   172.9834   11.6377    20         "Deformed Bed Boundary"
143.2559   182.1563   9.858396   20         "Deformed Bed Boundary"
143.3541   349.4761   6.591255   20         "Deformed Bed Boundary"
143.4861   350.4198   5.55891    20         "Deformed Bed Boundary"
143.5573   350.2114   6.261559   20         "Deformed Bed Boundary"
143.6272   346.3381   3.059671   20         "Deformed Bed Boundary"
143.6757   339.9733   5.062522   20         "Deformed Bed Boundary"
143.7223   345.2887   11.20556   20         "Deformed Bed Boundary"
143.7817   359.288    12.98762   20         "Deformed Bed Boundary"
143.8573   344.4095   8.127182   20         "Deformed Bed Boundary"
143.9334   358.2166   7.435828   20         "Deformed Bed Boundary"
143.9892   346.3844   5.574076   20         "Deformed Bed Boundary"
144.0685   359.7307   3.671861   20         "Deformed Bed Boundary"
144.1365   321.3559   6.37008    20         "Deformed Bed Boundary"
144.187    3.0678     4.307012   20         "Deformed Bed Boundary"
144.2347   314.2457   5.768595   20         "Deformed Bed Boundary"
144.3034   328.6674   6.384624   20         "Deformed Bed Boundary"
150.7082   327.9502   20.15057   20         "Deformed Bed Boundary"
150.7635   320.1149   11.98815   20         "Deformed Bed Boundary"
150.8279   296.3055   13.28958   20         "Deformed Bed Boundary"
151.1561   310.0485   10.57371   20         "Deformed Bed Boundary"
151.4721   132.4075   20.81751   20         "Deformed Bed Boundary"
151.5979   157.1687   23.74097   20         "Deformed Bed Boundary"
151.6715   144.0426   23.09956   20         "Deformed Bed Boundary"
151.7728   120.4802   25.41512   20         "Deformed Bed Boundary"
154.6473   332.4735   24.35949   20         "Deformed Bed Boundary"
169.5668   178.2218   2.609265   20         "Deformed Bed Boundary"
169.6542   221.6462   3.721      20         "Deformed Bed Boundary"
169.7601   246.2435   15.22749   20         "Deformed Bed Boundary"
169.8322   274.4565   15.25518   20         "Deformed Bed Boundary"
169.9242   244.7621   14.05506   20         "Deformed Bed Boundary"
170.0025   174.7669   10.2498    20         "Deformed Bed Boundary"
170.0792   202.3781   9.66093    20         "Deformed Bed Boundary"
170.1559   12.01552   19.98603   20         "Deformed Bed Boundary"
170.1912   6.183567   19.63001   20         "Deformed Bed Boundary"
171.3432   26.29897   4.814149   20         "Deformed Bed Boundary"
171.3931   55.79568   8.423985   20         "Deformed Bed Boundary"
171.4471   68.96004   14.49269   20         "Deformed Bed Boundary"
171.991    181.729    5.929957   20         "Deformed Bed Boundary"
172.0446   21.0588    4.503763   20         "Deformed Bed Boundary"
172.0723   15.53432   8.267386   20         "Deformed Bed Boundary"
172.1935   45.48131   7.482658   20         "Deformed Bed Boundary"
174.6234   302.9492   42.28503   20         "Deformed Bed Boundary"
174.7861   237.7077   38.33331   20         "Deformed Bed Boundary"
174.9118   249.3507   27.19252   20         "Deformed Bed Boundary"
175.0346   22.10065   38.01286   20         "Deformed Bed Boundary"
175.1174   58.34083   28.33386   20         "Deformed Bed Boundary"
175.1813   66.43117   18.96892   20         "Deformed Bed Boundary"
175.2493   63.45249   11.33419   20         "Deformed Bed Boundary"
175.2997   68.87843   16.72231   20         "Deformed Bed Boundary"
175.3434   71.19334   12.54988   20         "Deformed Bed Boundary"
