~Version
 VERS              .         2.0                           : CWLS LOG ASCII STANDARD - VERSION 2.0
 WRAP              .         NO                            : ONE LINE PER DEPTH STEP
 DLM               .         SPACE                         : DELIMITING CHARACTER(SPACE TAB OR COMMA)
~Well Information
#_______________________________________________________________________________
#
#PARAMETER_NAME    .UNIT     VALUE                         : DESCRIPTION
#_______________________________________________________________________________
STRT               .m        168.6342                      : First reference value
STOP               .m        212.7183                      : Last reference value
STEP               .m        0                             : Step increment
NULL               .         -9999                         : Missing value
COMP               .         SUNCOR ENERGY INC.            : Company
WELL               .         SUNCOR LEWIS 3-8-92-7         : Well name
FLD                .         LEWIS                         : Field
LOC                .                                       : Location
PROV               .         ALBERTA                       : Province
SRVC               .         Weatherford                   : Service Company
DATE               .         25-Jan-2018                   : Date
UWI                .         1AA030809207W400              : Unique Well ID
APD                .m        1.20                          : 
BHT                .degC     9                             : Bottom Hole Temperature
BLI                .m        220.00                        : First Reading
BS                 .mm       159.00                        : 
CBDR               .m        88.30                         : Casing Driller Depth
CBLO               .m        88.30                         : Casing Logger Depth
CTRY               .         Canada                        : State / Country
DFD                .kg/m3    1050.0                        : Drill Fluid Density
DFT                .         POLYMER                       : 
EGL                .m        477.4                         : Ground Level Elevation
EKB                .m        478.6                         : Kelly Bushing Elevation
EPD                .m        0                             : Elevation Above Permanent Datum
LIC                .         0486896                       : Licence Number
LMF                .         KB                            : Log Measured From
LUL                .         LLD                           : Equipment Base Location
LUN                .         14265                         : Equipment Number
LATI               .         56.960838 N                   : 
LONG               .         111.095591 W                  : 
MRT                .degC     9                             : Max Recorded Temperature
MST                .degC     9.8                           : Measured Temperature
ORIGINALWELLNAME   .         SUNCOR LEWIS 3-8-92-7         : 
PDAT               .         GROUND                        : Permanent Datum
PRODUCER-CODE      .         126                           : 
PRODUCER-NAME      .         Weatherford                   : 
RMB                .ohm.m    4.65                          : Resistivity at Bottom Hole Temperature
RMS                .ohm.m    4.45                          : Mud Resistivity at Measured Temperature
TDD                .m        230.00                        : Depth Driller
TDL                .m        230.10                        : Depth Logger
TLI                .m        91.50                         : Last Reading
~Parameter Information Block
#_______________________________________________________________________________
#
#PARAMETER_NAME    .UNIT     VALUE                         : DESCRIPTION
#_______________________________________________________________________________
SET                .         Final_Dip_Cross Bedding       : 
TLFamily_Azimuth   .         True Dip Azimuth              : 
TLFamily_DEPTH     .         Measured Depth                : 
TLFamily_Dip_TRU   .         True Dip Inclination          : 
TLFamily_Quality   .         Dip Quality                   : 
TLFamily_Type      .         Dip Classification            : 
~Curve Information
#_______________________________________________________________________________
#
#LOGNAME           .UNIT     LOG_ID                        : DESCRIPTION
#_______________________________________________________________________________
DEPTH              .m                                      :  
Azimuth            .dega                                   :  
Dip_TRU            .dega                                   :  
Quality            .                                       :  
Type               .                                       :  
~Ascii
168.6342   308.3724   24.98116   1          Cross-Bedding
168.7159   306.44     24.97754   1          Cross-Bedding
173.1269   264.7028   30.57081   1          Cross-Bedding
173.2823   238.8166   24.32432   1          Cross-Bedding
173.3872   216.7684   17.40777   1          Cross-Bedding
175.1515   341.9341   25.08073   1          Cross-Bedding
175.3614   341.8494   31.19413   1          Cross-Bedding
175.5401   357.7026   34.87435   1          Cross-Bedding
186.5727   13.13881   20.71128   1          Cross-Bedding
186.6621   355.6136   18.3808    1          Cross-Bedding
186.8409   339.9366   20.74665   1          Cross-Bedding
187.0624   7.393406   20.76622   1          Cross-Bedding
187.1634   359.2754   18.48094   1          Cross-Bedding
189.1298   341.9347   25.27605   1          Cross-Bedding
190.6065   77.87019   17.78476   1          Cross-Bedding
190.7619   46.75167   29.06948   1          Cross-Bedding
190.8824   56.79496   29.11984   1          Cross-Bedding
191.0107   66.49332   24.84541   1          Cross-Bedding
191.9705   353.7097   25.12239   1          Cross-Bedding
192.0832   359.5309   25.12585   1          Cross-Bedding
192.2192   3.506849   25.12489   1          Cross-Bedding
193.3423   1.457175   25.14832   1          Cross-Bedding
193.4744   359.4593   25.14634   1          Cross-Bedding
193.5949   355.5624   25.20131   1          Cross-Bedding
202.9176   300.7863   22.1072    1          Cross-Bedding
203.2052   9.55534    24.97749   1          Cross-Bedding
203.4034   3.628737   30.93824   1          Cross-Bedding
203.7298   1.780067   24.38867   1          Cross-Bedding
203.928    5.486205   28.26936   1          Cross-Bedding
204.1767   5.312829   24.37582   1          Cross-Bedding
204.441    333.9971   24.61412   1          Cross-Bedding
204.6819   328.0647   24.29446   1          Cross-Bedding
204.8723   326.1402   24.65515   1          Cross-Bedding
205.3892   356.0732   24.62504   1          Cross-Bedding
205.5485   358.1167   26.73523   1          Cross-Bedding
205.6962   357.7428   28.74957   1          Cross-Bedding
205.8866   3.651543   26.59942   1          Cross-Bedding
206.0848   353.845    24.59348   1          Cross-Bedding
206.2635   19.5875    30.84262   1          Cross-Bedding
206.4695   31.55118   32.52822   1          Cross-Bedding
206.6988   31.50859   32.05115   1          Cross-Bedding
207.134    47.19814   29.35245   1          Cross-Bedding
207.2856   39.41011   26.49681   1          Cross-Bedding
207.8996   35.40351   24.61222   1          Cross-Bedding
208.09     65.34      27.05208   1          Cross-Bedding
208.191    47.4752    27.06104   1          Cross-Bedding
208.3776   51.38239   30.38977   1          Cross-Bedding
208.6185   55.41936   32.60786   1          Cross-Bedding
208.8361   41.57855   30.91387   1          Cross-Bedding
209.0149   39.57981   34.92719   1          Cross-Bedding
209.3141   49.39705   24.86881   1          Cross-Bedding
209.5278   33.69523   24.15367   1          Cross-Bedding
209.6794   33.51537   24.3769    1          Cross-Bedding
209.8465   41.36879   24.60313   1          Cross-Bedding
210.0952   39.32144   19.99045   1          Cross-Bedding
210.3012   29.52053   20.16147   1          Cross-Bedding
210.6587   27.68357   26.72727   1          Cross-Bedding
210.8647   31.59987   24.25948   1          Cross-Bedding
210.9968   39.34733   20.03176   1          Cross-Bedding
211.432    324.5725   24.25497   1          Cross-Bedding
211.6613   342.4866   23.80717   1          Cross-Bedding
211.9994   337.5945   12.8778    1          Cross-Bedding
212.3375   329.0451   15.24875   1          Cross-Bedding
212.6095   300.8855   23.8962    1          Cross-Bedding
212.7183   308.6695   24.02988   1          Cross-Bedding
