~Version
 VERS              .         2.0                           : CWLS LOG ASCII STANDARD - VERSION 2.0
 WRAP              .         NO                            : ONE LINE PER DEPTH STEP
 DLM               .         SPACE                         : DELIMITING CHARACTER(SPACE TAB OR COMMA)
~Well Information
#_______________________________________________________________________________
#
#PARAMETER_NAME    .UNIT     VALUE                         : DESCRIPTION
#_______________________________________________________________________________
STRT               .m        158.4177                      : First reference value
STOP               .m        181.6219                      : Last reference value
STEP               .m        0                             : Step increment
NULL               .         -9999                         : Missing value
COMP               .         SUNCOR ENERGY INC.            : Company
WELL               .         SUNCOR LEWIS 3-8-92-7         : Well name
FLD                .         LEWIS                         : Field
LOC                .                                       : Location
PROV               .         ALBERTA                       : Province
SRVC               .         Weatherford                   : Service Company
DATE               .         25-Jan-2018                   : Date
UWI                .         1AA030809207W400              : Unique Well ID
APD                .m        1.20                          : 
BHT                .degC     9                             : Bottom Hole Temperature
BLI                .m        220.00                        : First Reading
BS                 .mm       159.00                        : 
CBDR               .m        88.30                         : Casing Driller Depth
CBLO               .m        88.30                         : Casing Logger Depth
CTRY               .         Canada                        : State / Country
DFD                .kg/m3    1050.0                        : Drill Fluid Density
DFT                .         POLYMER                       : 
EGL                .m        477.4                         : Ground Level Elevation
EKB                .m        478.6                         : Kelly Bushing Elevation
EPD                .m        0                             : Elevation Above Permanent Datum
LIC                .         0486896                       : Licence Number
LMF                .         KB                            : Log Measured From
LUL                .         LLD                           : Equipment Base Location
LUN                .         14265                         : Equipment Number
LATI               .         56.960838 N                   : 
LONG               .         111.095591 W                  : 
MRT                .degC     9                             : Max Recorded Temperature
MST                .degC     9.8                           : Measured Temperature
ORIGINALWELLNAME   .         SUNCOR LEWIS 3-8-92-7         : 
PDAT               .         GROUND                        : Permanent Datum
PRODUCER-CODE      .         126                           : 
PRODUCER-NAME      .         Weatherford                   : 
RMB                .ohm.m    4.65                          : Resistivity at Bottom Hole Temperature
RMS                .ohm.m    4.45                          : Mud Resistivity at Measured Temperature
TDD                .m        230.00                        : Depth Driller
TDL                .m        230.10                        : Depth Logger
TLI                .m        91.50                         : Last Reading
~Parameter Information Block
#_______________________________________________________________________________
#
#PARAMETER_NAME    .UNIT     VALUE                         : DESCRIPTION
#_______________________________________________________________________________
SET                .         Final_Dip_Lateral Accretion   : 
TLFamily_Azimuth   .         True Dip Azimuth              : 
TLFamily_DEPTH     .         Measured Depth                : 
TLFamily_Dip_TRU   .         True Dip Inclination          : 
TLFamily_Quality   .         Dip Quality                   : 
TLFamily_Type      .         Dip Classification            : 
~Curve Information
#_______________________________________________________________________________
#
#LOGNAME           .UNIT     LOG_ID                        : DESCRIPTION
#_______________________________________________________________________________
DEPTH              .m                                      :  
Azimuth            .dega                                   :  
Dip_TRU            .dega                                   :  
Quality            .                                       :  
Type               .                                       :  
~Ascii
158.4177   239.4018   2.4568     1          "Lateral Accretion"
159.1716   53.82563   2.646057   1          "Lateral Accretion"
159.7157   34.30471   2.876576   1          "Lateral Accretion"
160.0421   338.6338   0.5581351  1          "Lateral Accretion"
160.5823   74.36614   5.334045   1          "Lateral Accretion"
161.0447   70.42139   2.590603   1          "Lateral Accretion"
161.4256   29.36031   2.976249   1          "Lateral Accretion"
161.7986   105.8414   2.261485   1          "Lateral Accretion"
162.2883   351.1463   5.782653   1          "Lateral Accretion"
162.7857   349.6303   3.122536   1          "Lateral Accretion"
163.2326   340.2076   0.5280139  1          "Lateral Accretion"
163.7067   52.42604   5.391094   1          "Lateral Accretion"
164.0642   37.43414   5.460056   1          "Lateral Accretion"
164.2974   343.2577   0.4894371  1          "Lateral Accretion"
164.6549   336.8387   0.4693673  1          "Lateral Accretion"
165.0435   52.37539   5.347393   1          "Lateral Accretion"
165.5448   2.245416   3.078452   1          "Lateral Accretion"
165.9023   46.55608   7.970919   1          "Lateral Accretion"
166.1238   35.18608   2.866649   1          "Lateral Accretion"
166.5474   41.00928   5.462259   1          "Lateral Accretion"
167.1342   72.4344    2.629375   1          "Lateral Accretion"
167.4956   68.24114   5.28494    1          "Lateral Accretion"
167.9114   53.69533   2.861535   1          "Lateral Accretion"
168.1057   56.31015   5.382846   1          "Lateral Accretion"
168.9646   19.0923    5.728993   1          "Lateral Accretion"
169.2447   357.0994   5.786912   1          "Lateral Accretion"
169.7071   85.93781   2.506659   1          "Lateral Accretion"
170.2667   79.40469   2.563082   1          "Lateral Accretion"
170.7292   98.72015   2.405991   1          "Lateral Accretion"
174.215    349.9152   8.318712   1          "Lateral Accretion"
174.351    10.9875    8.314452   1          "Lateral Accretion"
175.6606   5.181985   13.46973   1          "Lateral Accretion"
176.1774   334.9152   8.312864   1          "Lateral Accretion"
176.4028   342.5045   8.372343   1          "Lateral Accretion"
176.8614   344.7081   5.786211   1          "Lateral Accretion"
177.0324   348.265    8.42824    1          "Lateral Accretion"
177.6697   333.5713   8.354254   1          "Lateral Accretion"
177.9417   327.8513   5.685274   1          "Lateral Accretion"
178.3498   334.7445   8.317533   1          "Lateral Accretion"
178.5091   338.7422   8.328022   1          "Lateral Accretion"
178.8511   344.7425   8.363272   1          "Lateral Accretion"
179.2358   330.8007   13.41101   1          "Lateral Accretion"
179.5661   344.2298   13.41527   1          "Lateral Accretion"
179.8148   333.1721   8.332828   1          "Lateral Accretion"
180.0985   338.7735   8.361009   1          "Lateral Accretion"
180.4444   15.84202   5.720178   1          "Lateral Accretion"
181.004    7.139275   13.48323   1          "Lateral Accretion"
181.6219   359.5297   8.414593   1          "Lateral Accretion"
