~VERSION INFORMATION
VERS.                                                 2.0:   CWLS Log ASCII Standard-VERSION 2.0
WRAP.                                                  NO:   One line per depth step
~Well Information Block
STRT.M                                           141.1996:   Top Depth
STOP.M                                           349.5805:   Bottom Depth
STEP.M                                             .00000:   Depth Increment
NULL.                                            -999.250:   Null Value
FLD .                                           UNDEFINED:   Field Name
WELL.                             SUNCOR FIREBAG 4-7-93-4:   NAME
UWI .                                    1AA040709304W400:   UWI
LIC .                                             0492309:   LICENSE NUMBER
BS1 .MM                                               251:   BIT SIZE 1
BS2 .MM                                               159:   BIT SIZE 2
CTRY.                                              Canada:   COUNTRY
CS1 .MM                                             177.8:   CSG 1 SIZE
CW1 .KG/M                                            25.3:   CSG 1 WT
DMF .                                                  KB:   DRILL MEAS FROM
EPD .M                                                  0:   ELEV PERM DATUM
EGL .M                                              652.3:   GROUND LEVEL
EKB .M                                              656.5:   KB ELEVATION
SRVC.                                         Weatherford:   LOGGING CONTRACTOR
LMF .                                                  KB:   LOGS MEAS FROM
COMP.                                  SUNCOR ENERGY INC.:   OPERATOR
PDAT.                                              GROUND:   PERM DATUM
PROV.                                             ALBERTA:   PROVINCE
DATE.                                          2019/03/01:   RUN DATE
BSD1.M                                                  0:   TD 1 DRILLER
BSD2.M                                              109.7:   TD 2 DRILLER
~PARAMETER INFORMATION (log)
LNAM.                             RESISTIVE NODULAR EVENT:   NAME
LTYP.                                                CORR:   LOG TYPE
LVSN.                                                   1:   LOG VERSION
BHIS.                                                   T:   BRIEF HISTORY
FHIS.                                          TRANSCRIPT:   FULL HISTORY
~Curve Information Block
#MNEM.UNIT                                        API CODE    No Description
#=========                                        ========    == ===========
DEPT.M                                       00 001 00 00:     1  DEPTH
DPTR.DEG                                               01:     2  Computed Dip Magnitude
DPAZ.DEG                                               01:     3  Computed Dip Azimuth
ICCO.                                                  01:     4  Computed Dip Quality
DEVI.DEG                                               01:     5  Deviation
HAZI.DEG                                               01:     6  Hole Azimuth
ADIP.DEG                                               01:     7  Apparent Dip
AAZI.DEG                                               01:     8  Apparent Azimuth
TRALEN.MM                                              01:     9  Trace length of pick
WIDTH.DEG                                              01:    10  Width of pick
HEIGHT.MM                                              01:    11  Height of pick
LEFT.DEG                                               01:    12  Left side of pick
RIGHT.DEG                                              01:    13  Right side of pick
DIPTYPE.TEXT                                           01:    14  Dip Type
DIPCODE.                                               01:    15  Code for diptype
~ASCII
  141.1996 23.4786 162.9647 1.0000 .1623 163.0595 23.6409 162.9653 373.1882 .0000 .0000 235.0000 101.0000            RESISTIVE_NODULAR_EVENT 13.0000
  141.2584 19.0979 349.7243 1.0000 .1165 166.8980 18.9815 349.7410 368.3960 .0000 .0000 233.0000 100.0000            RESISTIVE_NODULAR_EVENT 13.0000
  162.7206 21.4120 46.2588 1.0000 .3493 124.9300 21.4833 47.1293 562.8326 .0000 .0000 .0000 .0000            RESISTIVE_NODULAR_EVENT 13.0000
  162.8528 2.7362 201.1023 1.0000 .4283 126.1547 2.8773 192.8449 533.2222 .0000 .0000 .0000 .0000            RESISTIVE_NODULAR_EVENT 13.0000
  174.8474 5.6617 8.5174 1.0000 .0228 189.9223 5.6389 8.5117 537.5231 .0000 .0000 .0000 .0000            RESISTIVE_NODULAR_EVENT 13.0000
  174.8981 1.4095 182.8391 1.0000 .0127 5.3436 1.3968 182.8163 540.1810 .0000 .0000 .0000 .0000            RESISTIVE_NODULAR_EVENT 13.0000
  181.9604 22.3608 60.2597 1.0000 .1053 125.5999 22.4049 60.4918 310.9370 .0000 .0000 148.0000 344.0000            RESISTIVE_NODULAR_EVENT 13.0000
  182.0124 16.0105 265.8098 1.0000 .1053 125.5999 15.9297 265.5738 318.2994 .0000 .0000 149.0000 354.0000            RESISTIVE_NODULAR_EVENT 13.0000
  182.1761 9.1679 5.7784 1.0000 .1334 151.7949 9.0576 6.2461 545.4116 .0000 .0000 .0000 .0000            RESISTIVE_NODULAR_EVENT 13.0000
  182.4214 2.7660 181.6983 1.0000 .1017 148.0800 2.8512 180.5678 533.9805 .0000 .0000 .0000 .0000            RESISTIVE_NODULAR_EVENT 13.0000
  189.8717 4.0623 56.3243 1.0000 .2145 89.7670 4.2429 57.9180 538.0795 .0000 .0000 .0000 .0000            RESISTIVE_NODULAR_EVENT 13.0000
  189.9310 5.4520 66.1338 1.0000 .2145 89.7670 5.6491 67.0032 538.6303 .0000 .0000 .0000 .0000            RESISTIVE_NODULAR_EVENT 13.0000
  217.4036 2.5417 21.2996 1.0000 .4110 67.2101 2.8430 27.2555 535.4674 .0000 .0000 .0000 .0000            RESISTIVE_NODULAR_EVENT 13.0000
  217.5358 6.7070 297.0063 1.0000 .3669 73.4745 6.4459 299.2429 531.1627 .0000 .0000 .0000 .0000            RESISTIVE_NODULAR_EVENT 13.0000
  217.7314 6.6514 262.4249 1.0000 .2985 96.6654 6.3625 261.7666 538.8218 .0000 .0000 .0000 .0000            RESISTIVE_NODULAR_EVENT 13.0000
  217.7864 1.2022 57.1373 1.0000 .2488 89.0954 1.4194 62.4606 536.3730 .0000 .0000 .0000 .0000            RESISTIVE_NODULAR_EVENT 13.0000
  223.1381 11.0231 307.0514 1.0000 .3076 48.6125 10.9655 308.6066 409.6421 .0000 .0000 351.0000 258.0000            RESISTIVE_NODULAR_EVENT 13.0000
  223.1776 5.2985 113.9415 1.0000 .3801 50.9400 5.4815 110.4098 424.2329 .0000 .0000 344.0000 263.0000            RESISTIVE_NODULAR_EVENT 13.0000
  224.9597 2.8371 152.9319 1.0000 .1503 63.8333 2.8434 149.9054 535.4635 .0000 .0000 .0000 .0000            RESISTIVE_NODULAR_EVENT 13.0000
  225.0094 3.6080 176.5548 1.0000 .1503 63.8333 3.5526 174.3218 535.6688 .0000 .0000 .0000 .0000            RESISTIVE_NODULAR_EVENT 13.0000
  235.9596 7.1809 152.9072 1.0000 .1024 174.0612 7.2765 153.1967 311.1143 .0000 .0000 259.0000 103.0000            RESISTIVE_NODULAR_EVENT 13.0000
  235.9923 7.2583 1.1291 1.0000 .1024 174.0612 7.1566 1.2295 314.2534 .0000 .0000 259.0000 105.0000            RESISTIVE_NODULAR_EVENT 13.0000
  244.9123 9.1387 206.8775 1.0000 .0498 224.7876 9.1861 206.9723 547.5941 .0000 .0000 .0000 .0000            RESISTIVE_NODULAR_EVENT 13.0000
  244.9523 8.5429 212.7365 1.0000 .0876 232.7092 8.6252 212.9338 528.6503 .0000 .0000 .0000 .0000            RESISTIVE_NODULAR_EVENT 13.0000
  262.1119 32.2525 272.5552 1.0000 .0567 279.4949 32.3088 272.5660 576.0751 .0000 .0000 .0000 .0000            RESISTIVE_NODULAR_EVENT 13.0000
  262.5106 5.9775 109.1584 1.0000 .2418 287.7424 5.7358 109.2178 549.0355 .0000 .0000 .0000 .0000            RESISTIVE_NODULAR_EVENT 13.0000
  286.0597 6.1753 331.8739 1.0000 .2796 352.4366 6.4379 332.7445 531.5507 .0000 .0000 .0000 .0000            RESISTIVE_NODULAR_EVENT 13.0000
  286.1866 11.4249 226.3670 1.0000 .3272 352.4948 11.2350 227.6972 540.6954 .0000 .0000 .0000 .0000            RESISTIVE_NODULAR_EVENT 13.0000
  300.0911 13.4085 27.3133 1.0000 .1633 320.7072 13.4741 26.6877 534.4032 .0000 .0000 .0000 .0000            RESISTIVE_NODULAR_EVENT 13.0000
  300.1419 11.4074 230.2948 1.0000 .1633 320.7072 11.4074 231.1041 532.2947 .0000 .0000 .0000 .0000            RESISTIVE_NODULAR_EVENT 13.0000
  311.2257 4.0289 348.9019 1.0000 .1978 333.6501 4.2200 348.1967 544.7339 .0000 .0000 .0000 .0000            RESISTIVE_NODULAR_EVENT 13.0000
  311.3454 5.7149 209.2923 1.0000 .1907 328.4379 5.6245 210.9836 545.4271 .0000 .0000 .0000 .0000            RESISTIVE_NODULAR_EVENT 13.0000
  312.6673 .7593 189.8217 1.0000 .1553 320.5328 .6684 199.9673 537.8073 .0000 .0000 .0000 .0000            RESISTIVE_NODULAR_EVENT 13.0000
  349.4983 26.8531 306.1517 1.0000 .1939 340.6595 27.0131 306.3673 577.7646 .0000 .0000 .0000 .0000            RESISTIVE_NODULAR_EVENT 13.0000
  349.5805 14.3233 263.8846 1.0000 .2092 326.2664 14.4215 264.6057 525.1973 .0000 .0000 .0000 .0000            RESISTIVE_NODULAR_EVENT 13.0000
